REGISTRY_ID,FAC_NAME,noncomp_count,CWA_FORMAL_ACTION_COUNT,DFR_URL,FAC_LAT,FAC_LONG
110011025461,BEST CONCRETE MIX CORP,13,1.0,http://echo.epa.gov/detailed-facility-report?fid=110011025461,40.763000000000005,-73.836
110070388964,"USC - KINGS, LLC - ON TIME",7,,http://echo.epa.gov/detailed-facility-report?fid=110070388964,40.764842,-73.836865
110004336004,WILLETS POINT ASPHALT CORP,6,1.0,http://echo.epa.gov/detailed-facility-report?fid=110004336004,40.76616,-73.837855
110070434842,FLUSHING POINT PLAZA,0,1.0,http://echo.epa.gov/detailed-facility-report?fid=110070434842,40.756454999999995,-73.83518000000001
110040092342,SUPER YUAN CONSTRUCTION CORP,0,,http://echo.epa.gov/detailed-facility-report?fid=110040092342,40.755165000000005,-73.83426999999999
110017369088,ON THE WATER CONCRETE,0,,http://echo.epa.gov/detailed-facility-report?fid=110017369088,40.76433,-73.836525
110059713680,FEDEX EXPRESS (LGAA),0,,http://echo.epa.gov/detailed-facility-report?fid=110059713680,40.72575,-73.90929
110070003504,NYC DEPT OF ENVIR PROTECTION,0,,http://echo.epa.gov/detailed-facility-report?fid=110070003504,40.734015,-73.86348000000001
110022294729,NYC DEPT OF ENVIR PROTECTION,0,,http://echo.epa.gov/detailed-facility-report?fid=110022294729,40.73499,-73.86499
