REGISTRY_ID,FAC_NAME,noncomp_count,CAA_FORMAL_ACTION_COUNT,DFR_URL,FAC_LAT,FAC_LONG
110017439565,SALINAS RIVER COGENERATION COMPANY,0,,http://echo.epa.gov/detailed-facility-report?fid=110017439565,35.9516,-120.8679
110000529376,"CALPINE KING CITY COGEN, LLC",0,,http://echo.epa.gov/detailed-facility-report?fid=110000529376,36.2257,-121.1279
110017972951,JOHN SMITH ROAD CLASS III LANDFILL,0,,http://echo.epa.gov/detailed-facility-report?fid=110017972951,36.8249,-121.3236
110017973291,BUENA VISTA DRIVE SANITARY LANDFILL,0,,http://echo.epa.gov/detailed-facility-report?fid=110017973291,36.91657,-121.81525
110006830732,GRANITE ROCK WILSON,0,,http://echo.epa.gov/detailed-facility-report?fid=110006830732,36.8922,-121.6407
110000876954,MOSS LANDING POWER PLANT,0,,http://echo.epa.gov/detailed-facility-report?fid=110000876954,36.804722,-121.77555600000001
110033644126,"AMERESCO SANTA CRUZ ENERGY, LLC - BUENA VISTA LANDFILL",0,,http://echo.epa.gov/detailed-facility-report?fid=110033644126,36.91657,-121.81525
110043089537,SARGENT CANYON COGENERATION COMPANY,0,,http://echo.epa.gov/detailed-facility-report?fid=110043089537,35.95459,-120.862144
110000522710,MONTEREY REGIONAL WWTP,0,,http://echo.epa.gov/detailed-facility-report?fid=110000522710,36.7121,-121.7679
